{
  "login": {
    "accessToken": "TOKEN_DE_ACESSO",
    "refreshToken": "REFRESH_TOKEN"
  },
  "companies": [
    {
      "id": 2,
      "name": "Shopping Cidade São Paulo",
      "address": "Rua teste 123, Vila Madalena",
      "distance": 800
    },
    {
      "id_company": 3,
      "name": "Lugar ai esquisito",
      "address": "Rua teste 123, Vila Madalena",
      "distance": 2000
    },
    {
      "id_company": 4,
      "name": "Casa do carlos",
      "address": "Rua teste 123, Vila Madalena",
      "distance": 2200
    },
    {
      "id_company": 5,
      "name": "Casa do leo",
      "address": "Rua teste 123, Vila Madalena",
      "distance": 3000
    },
    {
      "id_company": 6,
      "name": "Casa do guizao",
      "address": "Rua teste 123, Vila Madalena",
      "distance": 5000
    }
  ],
  "map-company": [
    {
      "id_company": 1,
      "tradingName": "Empresa do Rato",
      "name": "EMPRESA RATO LTDA",
      "cnpj": "51604231000145",
      "cep": "05857590",
      "street": "Rua teste",
      "number": "4",
      "district": "Valo velho",
      "city": "São Paulo",
      "state": "SP",
      "phone": "Empresa do Rato",
      "email:": "ratofeio@rato.com.br",
      "needs": "Empresa do Rato",
      "lat": -23.67,
      "long": -46.67
    },
    {
      "id_company": 2,
      "tradingName": "Shopping Cidade São Paulo",
      "name": "Shopping Cidade São Paulo",
      "street": "Rua teste",
      "number": "4A",
      "district": "Valo Velho",
      "city": "São Paulo",
      "state": "SP",
      "needs": [1, 3, 4],
      "lat": -23.67,
      "long": -46.67,
      "distance": 800
    },
    {
      "id_company": 3,
      "name": "Lugar ai esquisito",
      "street": "Rua teste",
      "number": "4A",
      "district": "Valo Velho",
      "city": "São Paulo",
      "state": "SP",
      "needs": [1, 3, 4],
      "lat": -23.562827,
      "long": -46.654591,
      "distance": 1200
    },
    {
      "id_company": 4,
      "name": "Casa do carlos",
      "street": "Rua teste",
      "number": "4A",
      "district": "Valo Velho",
      "city": "São Paulo",
      "state": "SP",
      "needs": [1, 3, 4],
      "lat": -23.64082,
      "long": -46.53197,
      "distance": 2000
    },
    {
      "id_company": 5,
      "name": "Casa do leo",
      "street": "Rua teste",
      "number": "4A",
      "district": "Valo Velho",
      "city": "São Paulo",
      "state": "SP",
      "needs": [1, 3, 4],
      "lat": -23.67016,
      "long": -46.80189,
      "distance": 2200
    },
    {
      "id_company": 6,
      "name": "Casa do guizao",
      "street": "Rua teste",
      "number": "4A",
      "district": "Valo Velho",
      "city": "São Paulo",
      "state": "SP",
      "needs": [1, 3, 4],
      "lat": -23.65175,
      "long": -46.78581,
      "distance": 2800
    }
  ],
  "company": [
      {
        "id": 1,
        "tradingName": "Empresa do Rato",
        "name": "EMPRESA RATO LTDA",
        "cnpj": "51604231000145",
        "cep": "05857590",
        "street": "Rua teste",
        "number": "4",
        "district": "Valo velho",
        "city": "São Paulo",
        "state": "SP",
        "phone": "+5511951503633",
        "email:": "ratofeio@rato.com.br",
        "needs": "Empresa do Rato",
        "lat": -23.67,
        "long": -46.67
      },
      {
        "id": 2,
        "tradingName": "Empresa do Rato",
        "name": "EMPRESA RATO LTDA",
        "cnpj": "51604231000145",
        "cep": "05857590",
        "street": "Rua teste",
        "number": "4",
        "district": "Valo velho",
        "city": "São Paulo",
        "state": "SP",
        "phone": "+5511951503633",
        "email:": "ratofeio@rato.com.br",
        "needs": "Empresa do Rato",
        "lat": -23.67,
        "long": -46.67
      },
      {
        "id": 3,
        "tradingName": "Empresa do Rato",
        "name": "EMPRESA RATO LTDA",
        "cnpj": "51604231000145",
        "cep": "05857590",
        "street": "Rua teste",
        "number": "4",
        "district": "Valo velho",
        "city": "São Paulo",
        "state": "SP",
        "phone": "+5511951503633",
        "email:": "ratofeio@rato.com.br",
        "needs": "Empresa do Rato",
        "lat": -23.67,
        "long": -46.67
      },
      {
        "id": 4,
        "tradingName": "Empresa do Rato",
        "name": "EMPRESA RATO LTDA",
        "cnpj": "51604231000145",
        "cep": "05857590",
        "street": "Rua teste",
        "number": "4",
        "district": "Valo velho",
        "city": "São Paulo",
        "state": "SP",
        "phone": "+5511951503633",
        "email:": "ratofeio@rato.com.br",
        "needs": "Empresa do Rato",
        "lat": -23.67,
        "long": -46.67
      },
      {
        "id": 5,
        "tradingName": "Empresa do Rato",
        "name": "EMPRESA RATO LTDA",
        "cnpj": "51604231000145",
        "cep": "05857590",
        "street": "Rua teste",
        "number": "4",
        "district": "Valo velho",
        "city": "São Paulo",
        "state": "SP",
        "phone": "+5511951503633",
        "email:": "ratofeio@rato.com.br",
        "needs": "Empresa do Rato",
        "lat": -23.67,
        "long": -46.67
      },
      {
        "id": 6,
        "tradingName": "Empresa do Rato",
        "name": "EMPRESA RATO LTDA",
        "cnpj": "51604231000145",
        "cep": "05857590",
        "street": "Rua teste",
        "number": "4",
        "district": "Valo velho",
        "city": "São Paulo",
        "state": "SP",
        "phone": "+5511951503633",
        "email:": "ratofeio@rato.com.br",
        "needs": "Empresa do Rato",
        "lat": -23.67,
        "long": -46.67
      }
  ]
}
